UTC,Pack_count,IMUTemp,q0,q1,q2,q3,Roll,Pitch,Yaw,RollRate,PitchRate,YawRate,AccX,AccY,AccZ,RealAccX,RealAccY,RealAccZ,PosX,PosY,PosZ,Long,Lat,Height,VelX,VelY,VelZ,RSSI,SNR,
10:33:11:08,26992,29.7188,0.99418   0.0053904   0.0046194    -0.10754,0.557215     0.592701     -12.3439,0.0057755  0.00091505  -0.0015163,0.0010176   0.0015736   -0.011116,-0.10016    0.097107      9.7656,0  0  0,0  0  0,0  0  0,213,-38,
10:33:11:42,26993,29.7188,0.99417   0.0053529   0.0046627    -0.10759,0.552373     0.597197     -12.3507,0.0048599   0.0003314 -0.00094986,0.00070333   0.0091629   -0.016083,-0.10278     0.10345      9.7656,0  0  0,0  0  0,0  0  0,213,-37,
10:33:11:76,26994,29.7188,0.99418   0.0053754   0.0046268    -0.10754,0.555414     0.593352     -12.3444,0.0035629  0.00060225 -0.00052929,-0.015526   0.0027027  -0.0077705,-0.1167    0.094177      9.7734,0  0  0,0  0  0,0  0  0,213,-37,
10:33:12:10,26995,29.7031,0.99418   0.0054055   0.0046099    -0.10754,0.559044       0.5918     -12.3442,0.0033913   0.0022068 -0.00064707,-0.023621    0.010132   -0.006012,-0.1261     0.10028      9.7734,0  0  0,0  0  0,0  0  0,213,-37,
10:33:12:44,26996,29.7031,0.99417   0.0053586   0.0046744    -0.10756,0.552901     0.598578     -12.3463,0.0043182   0.0019569 -0.00057745,-0.0049591   -0.003685   -0.013229,-0.10596    0.089783      9.7656,0  0  0,0  0  0,0  0  0,213,-38,
10:33:12:78,26997,29.7188,0.99418   0.0053904   0.0046338    -0.10754,0.557036     0.594337     -12.3449,0.0063324  0.00052357 -0.00063324,-0.041504    -0.01403      0.0354,-0.13904    0.073242      9.8125,0  0  0,0  0  0,0  0  0,213,-37,
10:33:13:12,26998,29.7188,0.99417   0.0053911   0.0046068    -0.10758,0.557424     0.591291     -12.3493,0.0053215   0.0017395  -0.0011778,0.0075569  -0.0017805   -0.012581,-0.092896    0.095215      9.7656,0  0  0,0  0  0,0  0  0,213,-37,
10:33:13:46,26999,29.7188,0.99418   0.0054023   0.0045959    -0.10751,0.558865     0.590154     -12.3415,0.0047264   0.0016851 -0.00087786,-0.0089569   0.0046692   0.0088043,-0.11041    0.098389      9.7891,0  0  0,0  0  0,0  0  0,213,-37,
10:33:13:80,27000,29.75,0.99418   0.0054332   0.0045438    -0.10752,0.563022     0.584607     -12.3424,0.0045052  0.00093174 -0.00089931,-0.0063934  -0.0036507  -0.0059853,-0.10498    0.091309      9.7734,0  0  0,0  0  0,0  0  0,213,-37,
10:33:19:24,27016,29.7344,0.99424   0.0053308   0.0046324    -0.10693,0.550618     0.593109     -12.2743,0.003458    0.002655  -0.0013151,-0.0056648   0.0056992   -0.001502,-0.10791     0.09845      9.7813,0  0  0,0  0  0,0  0  0,213,-37,
10:33:19:58,27017,29.7344,0.99425   0.0053511   0.0046197    -0.10685,0.553137     0.591866     -12.2648,0.0050316   0.0013056 -0.00084591,-0.0079269  -0.0065117   0.0044594,-0.10724     0.08667      9.7813,0  0  0,0  0  0,0  0  0,213,-38,
10:33:19:92,27018,29.75,0.99425   0.0052963   0.0046556    -0.10682,0.546477     0.595265     -12.2614,-0.001545   0.0055389 -0.00051641,0.02562  -0.0036945    -0.02562,-0.075745    0.094482      9.7578,0  0  0,0  0  0,0  0  0,213,-38,
10:33:20:26,27019,29.75,0.99426   0.0053456   0.0046241    -0.10679,0.552499     0.592261      -12.258,0.00383   0.0013018  -0.0013752,-0.0067787 -0.00072956  -0.0012836,-0.10736    0.092285      9.7813,0  0  0,0  0  0,0  0  0,213,-37,
10:33:20:60,27020,29.75,0.99426   0.0053041   0.0046543    -0.10676,0.547414     0.595181     -12.2551,0.0050697  0.00031495  -0.0011463,-0.0024185   0.0060539  0.00047207,-0.10498    0.099121      9.7813,0  0  0,0  0  0,0  0  0,213,-37,
10:33:20:94,27021,29.7656,0.99426   0.0052872   0.0046518    -0.10674,0.545534     0.594685     -12.2527,0.002739   0.0004456  -0.0015402,0.0069733    0.030457   -0.022171,-0.10065     0.12421      9.7578,0  0  0,0  0  0,0  0  0,213,-37,
10:33:21:28,27022,29.7656,0.99426   0.0053644   0.0045968    -0.10671,0.555019      0.58934     -12.2493,0.0023384  -0.0010338 -0.00068951,-0.017288    0.016418  -0.0033894,-0.12054     0.10706      9.7734,0  0  0,0  0  0,0  0  0,213,-38,
10:33:21:62,27023,29.7656,0.99427   0.0053252   0.0046417    -0.10666,0.550037     0.593948      -12.243,0.0048256   0.0012083  -0.0011396,0.0033321  -0.0036716  -0.0010195,-0.097168    0.091248      9.7813,0  0  0,0  0  0,0  0  0,213,-38,
10:33:21:96,27024,29.7656,0.99427   0.0053614   0.0046073    -0.10665,0.554588     0.590465     -12.2416,0.0046425   0.0016623 -0.00084305,-0.0077667  -0.0072479 -0.00070477,-0.10669    0.086182      9.7813,0  0  0,0  0  0,0  0  0,213,-37,
10:33:22:30,27025,29.7656,0.99427   0.0053585   0.0046076    -0.10664,0.554253     0.590465     -12.2411,0.0041885   0.0014925  -0.0010195,-0.012459   0.0045433   0.0098724,-0.11389     0.09668      9.7891,0  0  0,0  0  0,0  0  0,213,-37,
10:33:22:64,27026,29.7656,0.99427   0.0053301   0.0046491    -0.10664,0.550513     0.594845     -12.2411,0.0042725   0.0012341   -0.001029,0.011429 -0.00097942  -0.0025616,-0.089966    0.095581      9.7734,0  0  0,0  0  0,0  0  0,213,-38,
10:33:22:98,27027,29.7969,0.99427   0.0053743   0.0046134    -0.10666,0.555973     0.591323     -12.2435,0.003767   0.0017176  -0.0006361,-0.011963     0.01796   -0.009697,-0.11621     0.10999      9.7656,0  0  0,0  0  0,0  0  0,213,-37,
10:33:23:32,27028,29.7969,0.99427   0.0053427   0.0046363    -0.10663,0.552108     0.593529       -12.24,0.0028534   0.0023308  -0.0010195,-0.0087509   0.0095978    0.010521,-0.11194     0.10193      9.7891,0  0  0,0  0  0,0  0  0,213,-37,
10:33:23:66,27029,29.7969,0.99428   0.0053139   0.0046433    -0.10656,0.548789     0.593939     -12.2313,0.0053368    0.000741  -0.0011301,-0.0076904    0.010956  3.7193e-05,-0.11096     0.10303      9.7813,0  0  0,0  0  0,0  0  0,213,-38,
10:33:24:00,27030,29.7969,0.99427   0.0053434   0.0046064     -0.1067,0.552515     0.590168     -12.2474,0.0043602  0.00098228  -0.0013866,-0.0081863   0.0044403 -0.00013828,-0.1095    0.097107      9.7813,0  0  0,0  0  0,0  0  0,213,-37,
10:33:24:34,27031,29.7969,0.99428   0.0053319   0.0046213    -0.10661,0.551078     0.591678     -12.2376,0.0041199    0.002203  -0.0010309,0.0091248   0.0020027   0.0060501,-0.092468    0.098206      9.7891,0  0  0,0  0  0,0  0  0,213,-38,
10:33:24:68,27032,29.7813,0.99427   0.0053789   0.0045779    -0.10665,0.556941     0.587334     -12.2422,0.0046043   0.0013361  -0.0011225,-0.0013361  -0.0042038   0.0051193,-0.10052    0.090942      9.7813,0  0  0,0  0  0,0  0  0,213,-37,
10:33:25:02,27033,29.7813,0.99428   0.0053539   0.0046013    -0.10654,0.553869     0.589626      -12.229,0.004303   0.0010023  -0.0013666,-0.0069199 -0.00031614   -0.010635,-0.10706    0.092834      9.7656,0  0  0,0  0  0,0  0  0,213,-39,
10:33:25:36,27034,29.7813,0.99428   0.0053068   0.0046586    -0.10653,0.547807     0.595581     -12.2284,-0.00054693   0.0061951 -0.00073576,-0.0068893  -0.0031185   0.0050812,-0.10809    0.088745      9.7813,0  0  0,0  0  0,0  0  0,213,-38,
10:33:25:70,27035,29.7969,0.99429   0.0053646   0.0045929    -0.10649,0.555214     0.588773     -12.2237,0.0050964     0.00142  -0.0012884,-0.0075073   0.0010233  -0.0037212,-0.10785    0.094421      9.7734,0  0  0,0  0  0,0  0  0,213,-37,
10:33:26:04,27036,29.7969,0.99429   0.0053185   0.0046296    -0.10645,0.549537     0.592374     -12.2193,0.0046539  0.00084686 -0.00095558,-0.0036545   0.0086288   0.0041885,-0.10632     0.10175      9.7813,0  0  0,0  0  0,0  0  0,213,-37,
10:33:26:38,27037,29.7969,0.9943   0.0053293   0.0046456    -0.10642,0.550599     0.594309     -12.2159,0.0041924   0.0013704  -0.0014343,0.0011969  -0.0030918  0.00012779,-0.099426     0.09137      9.7813,0  0  0,0  0  0,0  0  0,213,-37,
10:33:26:72,27038,29.7969,0.9943   0.0054012   0.0045734    -0.10639,0.559686      0.58695     -12.2123,0.0045853   0.0013485   -0.001462,-0.0069008   0.0029945  -0.0044746,-0.10736    0.097168      9.7734,0  0  0,0  0  0,0  0  0,213,-37,
10:33:27:06,27039,29.7969,0.99431   0.0053584   0.0045937     -0.1063,0.554608     0.588686     -12.2021,0.0046082   0.0012083  -0.0013494,-0.007576  -0.0021992   0.0022964,-0.10724    0.091187      9.7813,0  0  0,0  0  0,0  0  0,213,-37,
10:33:27:40,27040,29.7969,0.99431     0.00537   0.0045456    -0.10634,0.556502     0.583368     -12.2059,0.0037155   0.0024204  -0.0017519,0.023575   -0.018143   -0.020432,-0.072449    0.082214      9.7578,0  0  0,0  0  0,0  0  0,213,-37,
10:33:27:74,27041,29.7813,0.9943   0.0053842   0.0045743    -0.10639,0.557738     0.586839     -12.2119,0.0039024    0.001997  -0.0011187,0.001255  -0.0063515   -0.013542,-0.097351    0.089294      9.7656,0  0  0,0  0  0,0  0  0,213,-37,
10:33:28:08,27042,29.7813,0.9943   0.0053375   0.0046367    -0.10639,0.551659     0.593383     -12.2119,0.0039253   0.0022106  -0.0018597,-0.00054884  0.00045872   0.0051231,-0.10187    0.094727      9.7813,0  0  0,0  0  0,0  0  0,213,-37,
10:33:28:42,27043,29.7813,0.9943   0.0053889   0.0046058    -0.10639,0.557888     0.590485     -12.2122,0.0054932   0.0012808 -0.00092554,-0.071228  -0.0010319    0.067749,-0.17078    0.080139      9.8438,0  0  0,0  0  0,0  0  0,213,-37,
10:33:28:76,27044,29.7656,0.9943   0.0053788   0.0045905    -0.10636,0.556946     0.588599     -12.2084,0.0030003   0.0026093 -0.00064945,-0.012611    0.011551  -0.0021286,-0.11517     0.10376      9.7734,0  0  0,0  0  0,0  0  0,213,-37,
10:40:17:45,28246,29.8281,0.99373   0.0053723   0.0049209    -0.11153,0.548908     0.629032     -12.8044,0.0026379   0.0036221 -0.00058365,0.001544  -0.0030994   -0.014397,-0.1051    0.090881      9.7656,0  0  0,0  0  0,0  0  0,213,-39,
10:40:17:79,28247,29.8281,0.99372    0.005376   0.0049193    -0.11161,0.549297     0.628939     -12.8142,0.0032368   0.0021992 -0.00084829,0.002924  -0.0014229  -0.0039635,-0.10406    0.093079      9.7734,0  0  0,0  0  0,0  0  0,213,-39,
10:40:18:13,28248,29.8281,0.99371   0.0054167   0.0048867    -0.11173,0.554286     0.625813     -12.8274,0.0034657   0.0013094 -0.00092888,0.0064354  -0.0022144  -0.0062256,-0.099792    0.093933      9.7734,0  0  0,0  0  0,0  0  0,213,-38,
10:40:18:47,28249,29.8281,0.9937   0.0054434   0.0048559    -0.11179,0.557669     0.622692     -12.8348,8.7023e-05   0.0051041 -7.9513e-05,-0.0014248  -0.0037155  -0.0090332,-0.10693    0.090942      9.7734,0  0  0,0  0  0,0  0  0,213,-39,
10:40:18:81,28250,29.8125,0.9937   0.0054667   0.0048092    -0.11181,0.560917     0.617679     -12.8367,0.0040169   0.0018978 -0.00097847,-0.0030594  -0.0059929  -0.0017853,-0.10693    0.089355      9.7813,0  0  0,0  0  0,0  0  0,213,-38,
10:40:19:15,28251,29.8125,0.9937   0.0054464   0.0048187    -0.11185,0.558453     0.618528     -12.8414,0.004982   0.0019875  -0.0023003,-0.018845    0.010895   0.0059776,-0.12634     0.10205      9.7813,0  0  0,0  0  0,0  0  0,213,-39,
10:40:19:49,28252,29.8125,0.9937   0.0054351   0.0048516    -0.11187,0.556737     0.622132     -12.8438,0.0014534    0.002964 -0.00092363,0.0025158   0.0060196   -0.015686,-0.10492      0.1012      9.7656,0  0  0,0  0  0,0  0  0,213,-38,
10:52:51:58,30464,29.8438,0.99361    0.006062   0.0052053    -0.11257,0.623119     0.670891     -12.9239,0.0043068   0.0012655  -0.0013428,0.0082855  -0.0056915  -0.0013418,-0.10498     0.10284      9.7813,0  0  0,0  0  0,0  0  0,213,-37,
10:52:51:92,30465,29.8438,0.99361   0.0060558   0.0052024    -0.11258,0.622443     0.670487     -12.9254,0.0047112   0.0028629  -0.0013819,0.053467   -0.056732  -0.0074615,-0.04953     0.06311      9.7734,0  0  0,0  0  0,0  0  0,213,-36,
10:52:52:26,30466,29.875,0.99361   0.0059608   0.0052885     -0.1126,0.610504     0.679076     -12.9276,0.00012255   0.0058479 -0.00043011,0.022324   -0.028885  -0.0036545,-0.087891    0.080811      9.7734,0  0  0,0  0  0,0  0  0,213,-37,
10:52:52:60,30467,29.875,0.99361   0.0060137   0.0052582     -0.1126,0.616922     0.676306     -12.9266,0.0040817  0.00084352  -0.0016708,0.009285  -0.0032921   -0.005146,-0.10535     0.10431      9.7734,0  0  0,0  0  0,0  0  0,213,-37,
10:52:52:94,30468,29.875,0.99361   0.0059658   0.0053336     -0.1126,0.610503     0.684265     -12.9266,0.002758  -0.0018072 -0.00068998,0.023102   -0.013374   -0.017059,-0.090576    0.096191      9.7656,0  0  0,0  0  0,0  0  0,213,-37,
10:52:53:28,30469,29.875,0.99361   0.0059932   0.0052771    -0.11261,0.61434     0.678202     -12.9284,0.0061035   0.0038013 -0.00066233,-0.0006361   -0.004528    0.018906,-0.11566     0.10089      9.7969,0  0  0,0  0  0,0  0  0,213,-37,
10:52:53:62,30470,29.875,0.99361   0.0060329   0.0052302    -0.11261,0.619464     0.673367     -12.9286,0.0049019   0.0014067  -0.0016594,0.0076218   -0.019272  -0.0025215,-0.10303    0.088867      9.7734,0  0  0,0  0  0,0  0  0,213,-36,
10:52:53:96,30471,29.875,0.99361   0.0060339   0.0052406    -0.11261,0.61944     0.674564     -12.9281,0.0047264  0.00052261  -0.0017996,7.9334e-05   -0.015251   0.0093384,-0.11151    0.091248      9.7891,0  0  0,0  0  0,0  0  0,213,-36,
10:52:54:30,30472,29.875,0.99361   0.0061048   0.0051882    -0.11259,0.628202     0.669504     -12.9261,0.0019207   0.0028172 -0.00074625,0.0043716   -0.015839  -0.0028782,-0.10638    0.092712      9.7734,0  0  0,0  0  0,0  0  0,213,-37,
10:52:54:64,30473,29.875,0.9936   0.0060585    0.005209    -0.11263,0.622644     0.671294     -12.9305,0.0040817   0.0013847  -0.0019321,0.0012436   -0.021088   0.0076675,-0.10858    0.086243      9.7891,0  0  0,0  0  0,0  0  0,213,-36,
10:52:58:04,30483,29.875,0.9936   0.0060244   0.0052569    -0.11268,0.618101     0.676349     -12.9367,0.00073051   0.0047455 -0.00029588,0.0041618   -0.017532  -0.0044403,-0.10754    0.089172      9.7734,0  0  0,0  0  0,0  0  0,213,-36,
10:52:58:38,30484,29.875,0.9936   0.0060305   0.0052159    -0.11269,0.619316     0.671761     -12.9374,-0.00023758   0.0050697 -0.00023305,0.0010691  -0.0046158  -0.0049706,-0.11273     0.10114      9.7734,0  0  0,0  0  0,0  0  0,213,-37,
10:52:58:72,30485,29.875,0.9936   0.0060187   0.0052441     -0.1127,0.617614     0.674824     -12.9383,7.0393e-05    0.004303  -0.0004344,0.0053749   -0.013489  -0.0034752,-0.10699    0.093201      9.7734,0  0  0,0  0  0,0  0  0,213,-36,
10:52:59:06,30486,29.875,0.9936   0.0059568   0.0053175     -0.1127,0.609603     0.682388     -12.9392,-0.00024354   0.0054474 -0.00040388,0.012802    -0.01944 -0.00056171,-0.099854    0.087708      9.7813,0  0  0,0  0  0,0  0  0,213,-36,
10:52:59:40,30487,29.875,0.99359   0.0059656   0.0053033    -0.11276,0.61075     0.680921     -12.9459,-0.00030351    0.005043 -0.00034618,-0.030548  -0.0073204    0.022629,-0.14478    0.090271      9.8047,0  0  0,0  0  0,0  0  0,213,-37,
10:52:59:74,30488,29.875,0.99359   0.0059655   0.0053074    -0.11273,0.610716     0.681366     -12.9417,0.0049324  0.00072956  -0.0013514,0.0048027  -0.0089951  -0.0071602,-0.10931    0.096741      9.7734,0  0  0,0  0  0,0  0  0,213,-36,
10:53:00:08,30489,29.8438,0.9936   0.0059307   0.0053044    -0.11268,0.606819     0.680541     -12.9362,0.00015569   0.0061913   -0.001338,-0.0168  0.00037622    0.021439,-0.13318     0.10022      9.7969,0  0  0,0  0  0,0  0  0,213,-37,
10:54:30:53,30755,29.8438,0.99349   0.0054026   0.0054375    -0.11366,0.544286     0.689417       -13.05,0.0046272   0.0011997  -0.0011597,0.0080719   0.0039864   0.0033035,-0.1106    0.098877      9.7813,0  0  0,0  0  0,0  0  0,213,-37,
10:54:30:87,30756,29.875,0.99349   0.0053733   0.0054431    -0.11369,0.540857     0.689687     -13.0528,0.0044403   0.0013285  -0.0015678,0.0095367   0.0098495   0.0053711,-0.11053     0.10431      9.7813,0  0  0,0  0  0,0  0  0,213,-37,
10:54:31:21,30757,29.875,0.99349   0.0054228   0.0054034    -0.11366,0.547036     0.685801     -13.0498,0.0037937   0.0021706 -0.00070858,0.0098724  -0.0076332   0.0097885,-0.10577    0.088379      9.7891,0  0  0,0  0  0,0  0  0,213,-37,
10:54:31:55,30758,29.875,0.99349   0.0054032   0.0054284    -0.11365,0.544484     0.688385     -13.0488,0.0044098   0.0014858 -0.00085974,0.0065041   0.0048485  -0.0091705,-0.112    0.099243      9.7734,0  0  0,0  0  0,0  0  0,213,-37,
10:54:31:89,30759,29.8594,0.99348   0.0053924    0.005463    -0.11371,0.542764     0.692218     -13.0557,0.0044098   0.0027122  -0.0010662,-0.034088  -0.0057526    0.031891,-0.15039    0.079834      9.8125,0  0  0,0  0  0,0  0  0,213,-37,
10:54:32:23,30760,29.8594,0.99347   0.0053448   0.0054787    -0.11382,0.537064     0.693442     -13.0685,0.0018454   0.0012798 -0.00047398,-0.018768    0.012863    0.018692,-0.13965      0.1001      9.7969,0  0  0,0  0  0,0  0  0,213,-37,
10:54:32:57,30761,29.8594,0.99347   0.0053174   0.0055181    -0.11388,0.533389       0.6976     -13.0749,0.0026302   0.0024567 -0.00076485,-0.014809    0.023682    0.011253,-0.13892      0.1109      9.7891,0  0  0,0  0  0,0  0  0,213,-37,
10:54:32:91,30762,29.875,0.99346   0.0053364   0.0054882    -0.11391,0.535911     0.694465     -13.0791,0.0012112  -0.0016317   0.0003705,-0.013054    0.045959  -0.0071182,-0.14111     0.13306      9.7734,0  0  0,0  0  0,0  0  0,213,-37,
10:54:33:25,30763,29.875,0.99347   0.0053033   0.0054902    -0.11383,0.532178     0.694211     -13.0691,0.0028    0.004612  -0.0012093,0.022522    0.017166   -0.010674,-0.10046     0.11261      9.7656,0  0  0,0  0  0,0  0  0,213,-37,
10:54:33:58,30764,29.875,0.99346    0.005304   0.0054581     -0.1139,0.53262     0.690609      -13.078,3.7968e-05   0.0043068 -0.00060368,0.018341  -0.0018044   -0.011772,-0.099609    0.092957      9.7656,0  0  0,0  0  0,0  0  0,213,-37,
10:54:33:92,30765,29.875,0.99347   0.0053673   0.0053711    -0.11388,0.540988     0.681523     -13.0753,0.0019627   0.0031223 -0.00056171,0.0075264   0.0080185   0.0035152,-0.11084     0.10187      9.7813,0  0  0,0  0  0,0  0  0,213,-37,
10:54:34:26,30766,29.875,0.99348   0.0053711   0.0053328    -0.11376,0.542003      0.67714     -13.0613,0.0022259   0.0028458  -0.0008111,0.009079  0.00087547  -0.0023537,-0.10687    0.095398      9.7734,0  0  0,0  0  0,0  0  0,213,-38,
10:54:34:60,30767,29.875,0.99349    0.005353   0.0053199     -0.1137,0.540145     0.675404     -13.0545,0.003191   0.0038242  -0.0004847,0.068665  -0.0079269   -0.055542,-0.046021    0.099548      9.7266,0  0  0,0  0  0,0  0  0,213,-37,
10:54:34:94,30768,29.875,0.99349    0.005333   0.0053618    -0.11369,0.537334     0.679905     -13.0535,0.00078297   0.0035019 -0.00021982,-0.0077019   0.0084229     0.01738,-0.12573    0.098206      9.7969,0  0  0,0  0  0,0  0  0,213,-37,
10:54:36:98,30774,29.8906,0.99346   0.0052695   0.0052673    -0.11394,0.531158     0.668454     -13.0826,-0.00096607   0.0047913 -5.8413e-05,0.016998  -0.0021667    0.010277,-0.097351    0.092163      9.7891,0  0  0,0  0  0,0  0  0,213,-37,
10:54:37:33,30775,29.8906,0.99346   0.0052515   0.0052697    -0.11392,0.529095     0.668482     -13.0802,-0.00065804   0.0053864 -0.00012589,0.0055199   0.0037117  -0.0039177,-0.10974    0.094849      9.7734,0  0  0,0  0  0,0  0  0,213,-37,
10:54:37:67,30776,29.8906,0.99346   0.0052826   0.0052049    -0.11396,0.533451     0.661531     -13.0842,-0.0007205   0.0035667 -6.4194e-05,0.028046   -0.021576   -0.014198,-0.080627    0.075989      9.7656,0  0  0,0  0  0,0  0  0,213,-37,
10:54:38:01,30777,29.8906,0.99347   0.0052844   0.0052171    -0.11388,0.533556     0.662909     -13.0753,0.0028973   0.0024719  -0.0010738,0.010834   0.0069923    0.011826,-0.10425     0.10052      9.7891,0  0  0,0  0  0,0  0  0,213,-37,
10:59:37:55,31658,29.8125,0.99335   0.0053787   0.0051642     -0.1149,0.544303     0.658664     -13.1926,0.0039024   0.0015717  -0.0011492,0.0099716  -0.0018167  0.00057888,-0.10217    0.093567      9.7813,0  0  0,0  0  0,0  0  0,213,-37,
10:59:37:89,31659,29.8125,0.99335    0.005374   0.0051539    -0.11492,0.543891     0.657448      -13.195,0.0030022   0.0011206 -0.00091743,-0.025864    0.032471   0.0071526,-0.14465     0.11865      9.7891,0  0  0,0  0  0,0  0  0,213,-37,
10:59:38:23,31660,29.7969,0.99336     0.00537   0.0051255    -0.11479,0.543897     0.654085     -13.1799,0.0060501   0.0049248   -0.001173,0.0063858  -0.0071373   0.0080109,-0.10406    0.087769      9.7891,0  0  0,0  0  0,0  0  0,213,-37,
10:59:38:57,31661,29.7969,0.99337   0.0053304   0.0051513    -0.11475,0.53908     0.656484     -13.1753,0.00138   0.0033455 -9.0361e-05,0.0031548   0.0033875  -0.0018425,-0.10974    0.095947      9.7813,0  0  0,0  0  0,0  0  0,213,-37,
10:59:38:91,31662,29.7969,0.99337   0.0053299   0.0050991    -0.11474,0.539714     0.650533     -13.1741,0.00071478  -0.0014706 -4.4167e-05,0.075195   -0.020706   -0.074097,-0.031799    0.088257      9.7031,0  0  0,0  0  0,0  0  0,213,-38,
10:59:39:25,31663,29.7969,0.99338   0.0053078   0.0051249    -0.11467,0.536901     0.653142     -13.1666,0.0033779   0.0022106 -0.00062752,0.0074081    0.005043   -0.009079,-0.10522    0.098267      9.7734,0  0  0,0  0  0,0  0  0,213,-37,
10:59:39:59,31664,29.7969,0.99337   0.0052961   0.0051443    -0.11472,0.535283     0.655226     -13.1728,0.0023823    0.004055 -0.00046635,-0.03833   0.0093231     0.02272,-0.15161    0.091919      9.8047,0  0  0,0  0  0,0  0  0,213,-37,
10:59:39:93,31665,29.7969,0.99337   0.0053566   0.0050713    -0.11469,0.543146     0.647695     -13.1688,0.0021439 -0.00019979 -0.00068998,-0.025894    0.011292   0.0056267,-0.13806    0.097839      9.7813,0  0  0,0  0  0,0  0  0,213,-37,
10:59:40:27,31666,29.8281,0.99338   0.0052935   0.0050927    -0.11465,0.535706      0.64928     -13.1646,0.0038624  0.00075531 -0.00094652,0.00087643   0.0048256  -0.0046616,-0.11078    0.096436      9.7734,0  0  0,0  0  0,0  0  0,213,-38,
10:59:40:61,31667,29.8281,0.99338   0.0053233   0.0050029    -0.11467,0.540267     0.639452     -13.1668,0.0025291   0.0045052 -0.00050306,0.089478   -0.063965   -0.055115,-0.0069695    0.049866      9.7266,0  0  0,0  0  0,0  0  0,213,-38,
10:59:40:95,31668,29.8281,0.99339   0.0053335   0.0049969    -0.11459,0.541562     0.638866     -13.1572,0.005085   0.0019951  -0.0012865,0.023102  -0.0099716   -0.018509,-0.083984    0.088074      9.7578,0  0  0,0  0  0,0  0  0,213,-37,
